[{"id":"1","name":"Computer Lab","category":"Laboratory","description":"Advanced computing lab with high-performance systems for programming and research.","latitude":"12.91850000","longitude":"80.13890000","status":"open","occupancy_percentage":"45","open_hours":"09:00 - 17:00","image_url":"https:\/\/images.unsplash.com\/photo-1581092160607-ee22621dd758","voice_navigation":"The Computer Lab is located in the Science Block near the central pathway."},{"id":"2","name":"Zoology Lab","category":"Laboratory","description":"Equipped laboratory for biological specimen study and research.","latitude":"12.91862000","longitude":"80.13875000","status":"open","occupancy_percentage":"30","open_hours":"09:00 - 16:30","image_url":"https:\/\/images.unsplash.com\/photo-1581091012184-7f3c37d9b4b4","voice_navigation":"The Zoology Lab is inside the Life Sciences building."},{"id":"3","name":"Botany Lab","category":"Laboratory","description":"Plant research and botanical experiment laboratory.","latitude":"12.91870000","longitude":"80.13860000","status":"open","occupancy_percentage":"25","open_hours":"09:00 - 16:30","image_url":"https:\/\/images.unsplash.com\/photo-1581091870627-3d6b1d4d6f7b","voice_navigation":"The Botany Lab is located beside the Zoology department."},{"id":"4","name":"Library","category":"Academic","description":"Central academic library with extensive research and reference materials.","latitude":"12.91820000","longitude":"80.13900000","status":"open","occupancy_percentage":"40","open_hours":"08:00 - 20:00","image_url":"https:\/\/images.unsplash.com\/photo-1507842217343-583bb7270b66","voice_navigation":"Walk straight along the main road to reach the central library."},{"id":"5","name":"Bishop Heber Chapel","category":"Spiritual","description":"Historic chapel serving as a peaceful prayer and reflection space.","latitude":"12.91876640","longitude":"80.12379430","status":"open","occupancy_percentage":"15","open_hours":"06:00 - 20:00","image_url":"https:\/\/images.unsplash.com\/photo-1548625361-195fe0182a7f","voice_navigation":"Enter the chapel grounds located near the old academic block."},{"id":"6","name":"MCC Campus Clinic","category":"Medical","description":"On-campus medical clinic providing first aid and health support.","latitude":"12.92074350","longitude":"80.12276500","status":"open","occupancy_percentage":"20","open_hours":"08:00 - 20:00","image_url":"https:\/\/images.unsplash.com\/photo-1519494026892-80bbd2d6fd0d","voice_navigation":"The medical clinic is located near the administrative block."},{"id":"7","name":"MCC Cafeteria","category":"Food","description":"Main student cafeteria offering meals and refreshments.","latitude":"12.92034000","longitude":"80.12273000","status":"crowded","occupancy_percentage":"75","open_hours":"08:00 - 18:00","image_url":"https:\/\/images.unsplash.com\/photo-1555396273-367ea4eb4db5","voice_navigation":"The cafeteria is near the Union Society building."},{"id":"8","name":"Healthy Cafeteria","category":"Food","description":"Dedicated healthy meal cafeteria with fresh options.","latitude":"12.92050000","longitude":"80.12260000","status":"open","occupancy_percentage":"35","open_hours":"08:00 - 17:00","image_url":"https:\/\/images.unsplash.com\/photo-1498837167922-ddd27525d352","voice_navigation":"The healthy cafeteria is adjacent to the main canteen."},{"id":"9","name":"MCC Indoor Stadium","category":"Sports","description":"Indoor stadium for basketball, badminton and indoor events.","latitude":"12.91691000","longitude":"80.11940000","status":"open","occupancy_percentage":"35","open_hours":"06:00 - 21:00","image_url":"https:\/\/images.unsplash.com\/photo-1541252260730-0412e8e2108e","voice_navigation":"The indoor stadium is located in the South Campus sports zone."},{"id":"10","name":"Outdoor Playground","category":"Sports","description":"Large outdoor playground for football and athletic activities.","latitude":"12.91720000","longitude":"80.11910000","status":"open","occupancy_percentage":"50","open_hours":"06:00 - 18:30","image_url":"https:\/\/images.unsplash.com\/photo-1508098682722-e99c43a406b2","voice_navigation":"The outdoor playground is beside the indoor stadium."},{"id":"11","name":"Main Gate","category":"Entrance","description":"Primary entrance of the campus connecting to Tambaram Main Road.","latitude":"12.92316300","longitude":"80.12058400","status":"open","occupancy_percentage":"10","open_hours":"Open 24 Hours","image_url":"https:\/\/images.unsplash.com\/photo-1590059523275-58a36c568f6a","voice_navigation":"Start your campus journey from the Main Gate."}]
